City_ID,City,Lat,Lng,Max Temp,Humidity,Cloudiness,Country,Date,Wind Speed
0,Pedernales,18.0384,-71.744,77.36,73,43,DO,1675723491,9.33
1,Burnie,-41.0667,145.9167,62.94,57,6,AU,1675723491,4.74
2,Gemona,46.2794,13.1431,30.52,69,54,IT,1675723491,3.85
3,Busselton,-33.65,115.3333,67.33,72,98,AU,1675723492,10.54
4,Clyde River,70.4692,-68.5914,-27.17,68,20,CA,1675723492,8.05
5,Aklavik,68.2191,-135.0107,-29.2,68,40,CA,1675723493,3.44
6,Leskovik,40.1514,20.5972,19.26,68,28,AL,1675723493,5.28
7,Punta Arenas,-53.15,-70.9167,59.11,67,75,CL,1675723494,16.11
8,Puerto Ayora,-0.7393,-90.3518,84.16,73,53,EC,1675723494,11.01
9,Nikolskoye,59.7035,30.7861,26.49,98,91,RU,1675723494,3.31
10,Assiut,27.181,31.1837,48.38,42,81,EG,1675723495,7.47
11,Khatanga,71.9667,102.5,-41.48,100,56,RU,1675723495,3.09
12,Talnakh,69.4865,88.3972,-9.8,98,100,RU,1675723495,5.57
13,Ushuaia,-54.8,-68.3,53.22,87,75,AR,1675723296,12.66
14,Isangel,-19.55,169.2667,86.11,79,75,VU,1675723496,2.3
15,Kavaratti,10.5669,72.642,80.42,75,90,IN,1675723496,13.82
16,Port Alfred,-33.5906,26.891,73.18,93,100,ZA,1675723481,7.0
17,Dikson,73.5069,80.5464,-23.15,100,100,RU,1675723497,5.53
18,Katsuura,35.1333,140.3,50.45,67,100,JP,1675723497,7.54
19,Mataura,-46.1927,168.8643,63.3,64,70,NZ,1675723498,8.81
20,Cherskiy,68.75,161.3,-37.88,100,100,RU,1675723498,5.44
21,San Policarpo,12.1791,125.5072,79.59,79,74,PH,1675723498,13.85
22,Mahébourg,-20.4081,57.7,77.29,88,75,MU,1675723499,6.91
23,Cape Town,-33.9258,18.4232,70.88,89,40,ZA,1675723300,10.36
24,The Pas,53.8251,-101.2541,17.62,73,100,CA,1675723380,20.71
25,Bredasdorp,-34.5322,20.0403,69.21,93,68,ZA,1675723499,2.95
26,Kapaa,22.0752,-159.319,80.92,80,40,US,1675723500,13.8
27,Saldanha,-33.0117,17.9442,64.45,97,81,ZA,1675723500,13.47
28,Gigaquit,9.5944,125.6975,77.41,84,97,PH,1675723501,7.25
29,Alma,48.5501,-71.6491,8.73,66,31,CA,1675723501,3.11
30,Atuona,-9.8,-139.0333,78.51,76,14,PF,1675723502,12.57
31,Beringovskiy,63.05,179.3167,-16.62,92,96,RU,1675723502,8.66
32,Nanma,36.1817,118.1583,34.14,83,69,CN,1675723503,1.36
33,Hithadhoo,-0.6,73.0833,81.27,70,77,MV,1675723504,11.3
34,Lorengau,-2.0226,147.2712,77.09,94,100,PG,1675723506,10.83
35,Mayumba,-3.432,10.6554,77.41,84,84,GA,1675723506,1.25
36,Broome,42.2506,-75.833,32.16,81,100,US,1675723507,8.05
37,Puerto Ayacucho,5.6639,-67.6236,84.52,58,76,VE,1675723508,4.85
38,Lebanon,36.2081,-86.2911,62.82,29,0,US,1675722706,5.75
39,Falam,22.9167,93.6833,41.92,63,0,MM,1675723509,4.97
40,Saint-Philippe,-21.3585,55.7679,80.19,86,88,RE,1675723510,10.63
41,Hong Kong,22.2855,114.1577,68.95,90,92,HK,1675723403,5.01
42,Ilulissat,69.2167,-51.1,-2.18,78,100,GL,1675723511,8.05
43,Bambous Virieux,-20.3428,57.7575,77.25,88,75,MU,1675723304,6.91
44,Rikitea,-23.1203,-134.9692,79.34,74,65,PF,1675723514,10.42
45,Cortland,42.6001,-76.083,30.36,80,100,US,1675723515,3.44
46,Coquimbo,-29.9533,-71.3436,65.93,82,75,CL,1675723516,11.5
47,Riyadh,24.6877,46.7219,66.34,38,12,SA,1675723397,10.36
48,Kahului,20.8947,-156.47,81.97,72,20,US,1675723391,24.16
49,Ponta do Sol,32.6667,-17.1,59.72,65,22,PT,1675723517,9.48
50,Udachny,66.4167,112.4,-31.56,66,100,RU,1675723518,2.37
51,Okhtyrka,50.3104,34.8988,20.57,94,100,UA,1675723520,8.12
52,Grand Gaube,-20.0064,57.6608,77.4,81,82,MU,1675723294,1.99
53,San Jose de Guanipa,8.8872,-64.1651,81.0,54,72,VE,1675723520,12.84
54,Upernavik,72.7868,-56.1549,-9.18,95,100,GL,1675723521,6.98
55,Hobart,-42.8794,147.3294,63.27,58,20,AU,1675723522,5.75
56,Aiquile,-18.2041,-65.1807,58.78,86,67,BO,1675723522,3.78
57,Lompoc,34.6391,-120.4579,65.7,62,20,US,1675723374,16.11
58,Butaritari,3.0707,172.7902,81.34,79,75,KI,1675723523,20.33
59,Barrow,71.2906,-156.7887,-7.58,77,100,US,1675723524,6.91
60,Ransang,8.9603,117.5828,77.63,84,98,PH,1675723525,3.31
61,New Norfolk,-42.7826,147.0587,62.71,49,6,AU,1675723374,1.99
62,Saint-Pierre,-21.3393,55.4781,80.28,78,0,RE,1675723441,9.22
63,Sakakah,29.9697,40.2064,51.37,39,1,SA,1675723386,16.31
64,Trelew,-43.249,-65.3051,76.32,36,31,AR,1675723530,21.63
65,Santa Maria,-29.6842,-53.8069,85.3,51,20,BR,1675723434,2.3
66,Hualmay,-11.0964,-77.6139,74.89,78,60,PE,1675723531,7.83
67,Dalvik,65.9702,-18.5286,33.73,74,81,IS,1675723532,20.78
68,Tibati,6.4667,12.6333,70.74,18,4,CM,1675723532,4.16
69,Avarua,-21.2078,-159.775,84.25,79,20,CK,1675723533,11.5
70,Albany,42.6001,-73.9662,32.72,69,84,US,1675723313,6.11
71,Imeni Poliny Osipenko,52.4201,136.4853,-17.07,100,100,RU,1675723533,0.4
72,Carnarvon,-24.8667,113.6333,75.9,67,0,AU,1675723534,19.73
73,Lumding,25.7535,93.1732,53.24,65,1,IN,1675723534,2.35
74,Bluff,-46.6,168.3333,57.88,82,91,NZ,1675723535,30.82
75,Qianjiang,30.4151,112.8859,45.82,72,63,CN,1675723535,7.2
76,San Jose,37.3394,-121.895,62.67,50,20,US,1675723241,12.66
77,Faanui,-16.4833,-151.75,81.18,76,9,PF,1675723536,16.13
78,Ribeira Grande,38.5167,-28.7,57.78,75,87,PT,1675723536,18.99
79,Quatre Cocos,-20.2078,57.7625,77.11,79,83,MU,1675723536,13.18
80,Ostrovnoy,68.0531,39.5131,20.37,88,100,RU,1675723537,26.31
81,Flin Flon,54.7682,-101.865,15.64,67,100,CA,1675723537,10.36
82,Saskylakh,71.9167,114.0833,-30.62,100,97,RU,1675723538,2.73
83,Adrar,20.5022,-10.0711,62.2,24,36,MR,1675723538,9.37
84,Saint Anthony,45.0205,-93.218,36.55,82,100,US,1675723538,11.5
85,San Francisco,37.7749,-122.4194,62.85,57,20,US,1675722898,11.5
86,Luwingu,-10.2621,29.9271,62.44,93,100,ZM,1675723540,3.31
87,Daşoguz,41.8363,59.9666,33.75,80,0,TM,1675723540,16.11
88,Laurel,39.0993,-76.8483,47.7,58,100,US,1675723303,14.97
89,Nioro,13.35,-15.75,73.92,24,12,GM,1675723541,12.15
90,Qaanaaq,77.484,-69.3632,-18.62,98,100,GL,1675723542,3.65
91,Kondinskoye,59.6481,67.41,-4.81,99,96,RU,1675723542,6.55
92,Bengkulu,-3.8004,102.2655,75.22,84,87,ID,1675723358,6.46
93,Chaiya,9.3862,99.1986,71.58,90,92,TH,1675723542,1.28
94,Souillac,-20.5167,57.5167,77.38,88,75,MU,1675723543,6.91
95,Manado,1.487,124.8455,75.97,100,40,ID,1675723543,2.3
96,Fortuna,40.5982,-124.1573,53.92,66,0,US,1675723544,13.8
97,Coyhaique,-45.5752,-72.0662,66.15,42,0,CL,1675723544,12.66
98,Chemnitz,50.8333,12.9167,21.96,90,3,DE,1675723544,4.63
99,Beyşehir,37.6773,31.7246,26.55,87,100,TR,1675723545,19.84
100,Marawi,7.9986,124.2928,68.02,89,100,PH,1675723545,0.96
101,Bandarbeyla,9.4942,50.8122,74.59,76,75,SO,1675723545,11.52
102,Vaini,-21.2,-175.2,82.56,83,75,TO,1675723546,4.61
103,Lábrea,-7.2586,-64.7981,74.5,97,100,BR,1675723546,2.06
104,Tamworth,52.634,-1.6959,36.52,87,45,GB,1675723546,3.29
105,Lata,40.1629,-8.3327,42.67,66,0,PT,1675723438,6.02
106,Salisbury,51.0693,-1.7957,36.37,83,75,GB,1675723193,4.61
107,East London,-33.0153,27.9116,74.73,84,23,ZA,1675723547,15.28
108,Dalbandin,28.8947,64.4101,54.03,28,3,PK,1675723547,6.55
109,Pevek,69.7008,170.3133,-33.41,100,100,RU,1675723548,3.69
110,Provideniya,64.3833,-173.3,1.51,66,100,RU,1675723548,13.42
111,Karabük,41.2049,32.6277,32.77,93,100,TR,1675723548,5.75
112,Vanimo,-2.6741,141.3028,78.49,89,100,PG,1675723549,3.31
113,Ancud,-41.8697,-73.8203,60.78,71,0,CL,1675723549,2.13
114,Tessalit,20.1986,1.0114,74.66,10,99,ML,1675723550,7.83
115,Znamenskoye,57.1281,73.8282,-3.87,100,99,RU,1675723550,3.33
116,Bereda,43.2686,-7.5406,35.15,100,6,ES,1675723550,4.27
117,Portland,45.5234,-122.6762,51.57,80,100,US,1675722982,10.36
118,Lahaina,20.8783,-156.6825,81.95,81,5,US,1675723551,9.1
119,Jamestown,42.097,-79.2353,30.02,93,100,US,1675723551,6.91
120,Yekaterinovka,52.0508,44.3451,2.89,90,69,RU,1675723551,6.8
121,Kruisfontein,-34.0033,24.7314,69.37,92,79,ZA,1675723552,6.15
122,Hvide Sande,56.0045,8.1294,36.09,85,60,DK,1675723552,14.12
123,Bilma,18.6853,12.9164,64.13,17,20,NE,1675723553,8.41
124,Nortelândia,-14.4547,-56.8028,72.86,95,97,BR,1675723553,1.36
125,Karpogory,64.0019,44.4451,0.34,99,88,RU,1675723554,3.85
126,Carutapera,-1.195,-46.02,76.19,94,99,BR,1675723554,6.2
127,Port Macquarie,-31.4333,152.9167,78.89,64,48,AU,1675723554,3.38
128,Hilo,19.7297,-155.09,80.28,87,75,US,1675723555,7.0
129,Koumac,-20.5667,164.2833,84.4,74,91,NC,1675723555,1.32
130,Seminole,28.7086,-81.2081,72.34,62,0,US,1675723556,11.5
131,Ostrov,57.3439,28.3537,28.13,98,77,RU,1675723556,6.04
132,Ferme-Neuve,46.7001,-75.4493,5.85,94,7,CA,1675723556,0.76
133,Banda Aceh,5.5577,95.3222,77.31,83,98,ID,1675723261,3.29
134,Hasaki,35.7333,140.8333,44.22,56,100,JP,1675723557,1.03
135,Lavrentiya,65.5833,-171.0,-13.32,88,100,RU,1675723557,4.27
136,Husavik,66.0449,-17.3389,29.53,62,66,IS,1675723558,22.84
137,Tuatapere,-46.1333,167.6833,57.99,87,93,NZ,1675723558,10.96
138,Zenzeli,45.9241,47.0474,25.93,83,100,RU,1675723558,19.22
139,Namatanai,-3.6667,152.4333,82.02,76,99,PG,1675723559,4.0
140,Tunceli,39.1083,39.5471,35.31,99,100,TR,1675723559,5.21
141,Laguna,38.421,-121.4238,62.24,43,0,US,1675723560,19.57
142,Ketchikan,55.3422,-131.6461,45.07,65,40,US,1675723560,4.61
143,College,64.8569,-147.8028,10.09,81,75,US,1675723560,0.0
144,Arraial do Cabo,-22.9661,-42.0278,78.66,83,75,BR,1675723561,5.75
145,Hermanus,-34.4187,19.2345,71.8,93,30,ZA,1675723561,5.44
146,Pitsunda,43.1592,40.3378,39.38,80,100,GE,1675723562,5.46
147,Tuktoyaktuk,69.4541,-133.0374,-38.2,74,75,CA,1675723563,0.0
148,Walvis Bay,-22.9575,14.5053,65.35,88,67,NA,1675723563,8.05
149,Chui,-33.6971,-53.4616,70.59,76,87,UY,1675723338,7.31
150,Saint George,37.1041,-113.5841,51.44,38,100,US,1675723567,11.01
151,Westport,41.1415,-73.3579,45.19,63,100,US,1675723569,13.8
152,Luena,-11.7833,19.9167,62.08,94,100,AO,1675723570,4.18
153,Grindavik,63.8424,-22.4338,32.47,64,75,IS,1675723476,31.07
154,Bar Harbor,44.3876,-68.2039,33.28,63,0,US,1675723570,12.66
155,Bandundu Province,-3.3167,17.3667,71.92,90,76,CD,1675723571,2.17
156,Jalu,29.0331,21.5482,50.4,53,71,LY,1675723572,8.34
157,Robertsport,6.7533,-11.3686,78.58,87,91,LR,1675723572,9.62
158,Ushtobe,45.2514,77.9838,29.39,89,100,KZ,1675723573,3.47
159,Tura,25.5198,90.2201,56.61,53,0,IN,1675723548,2.98
160,Sur,22.5667,59.5289,70.05,62,60,OM,1675723576,3.18
161,Cidreira,-30.1811,-50.2056,75.09,74,7,BR,1675723577,8.86
162,Shakawe,-18.3667,21.85,67.68,94,100,BW,1675723578,4.27
163,Avera,33.194,-82.5271,64.45,48,0,US,1675723579,3.8
164,Am Timan,11.0297,20.2827,77.95,12,71,TD,1675723579,8.93
165,Hirara,24.8,125.2833,67.86,94,75,JP,1675723580,11.5
166,Tagbac,7.089,125.1567,70.86,90,99,PH,1675723581,2.39
167,Maniitsoq,65.4167,-52.9,5.88,87,100,GL,1675723581,2.68
168,Chokurdakh,70.6333,147.9167,-27.2,100,100,RU,1675723581,1.61
169,Hrádek,49.7132,13.653,25.41,100,3,CZ,1675723584,21.99
170,Felipe Carrillo Puerto,19.5833,-88.05,77.54,69,17,MX,1675723585,5.53
171,Ikom,5.9667,8.7063,77.67,81,7,NG,1675723585,2.77
172,Bathsheba,13.2167,-59.5167,79.41,69,20,BB,1675723315,18.41
173,Colchester,51.8892,0.9042,36.52,83,8,GB,1675723587,2.66
174,Hirado,33.3597,129.5531,43.39,92,100,JP,1675723588,20.45
175,Bethel,41.3712,-73.414,43.93,66,100,US,1675723584,13.8
176,Balkanabat,39.5108,54.3671,52.66,35,0,TM,1675723591,11.21
177,Yellowknife,62.456,-114.3525,-7.08,77,75,CA,1675723357,5.75
178,Torbay,47.6666,-52.7314,36.88,95,100,CA,1675723591,8.05
179,Roald,62.5833,6.1333,48.34,71,75,NO,1675723592,18.41
180,Arras,50.293,2.7819,37.06,82,6,FR,1675723593,5.82
181,Taltal,-25.4,-70.4833,72.41,71,27,CL,1675723592,6.17
182,Safi,32.2994,-9.2372,55.42,75,1,MA,1675723593,4.79
183,Marfino,55.7028,37.3822,21.45,79,100,RU,1675723593,4.47
184,Petropavlovsk-Kamchatskiy,53.0452,158.6483,5.59,72,40,RU,1675723561,8.95
185,Cap Malheureux,-19.9842,57.6142,76.46,82,79,MU,1675723594,4.0
186,Lagoa,39.05,-27.9833,55.22,71,100,PT,1675723370,25.84
187,Norman Wells,65.282,-126.8329,-12.96,77,75,CA,1675723595,4.61
188,Crotone,39.0851,17.1178,38.19,64,80,IT,1675723595,21.03
189,Frontera,26.9333,-101.45,86.32,23,9,MX,1675723595,4.0
190,El Salvador,13.8333,-88.9167,87.84,28,2,SV,1675723596,3.18
191,Sochi,43.6,39.7303,39.29,85,100,RU,1675723489,10.8
192,George Town,5.4112,100.3354,78.73,94,20,MY,1675723517,4.61
193,Muros,42.7762,-9.0603,46.83,68,0,ES,1675723596,8.63
194,Necochea,-38.5473,-58.7368,64.09,60,21,AR,1675723597,17.43
195,Melo,-32.3667,-54.1833,77.43,43,78,UY,1675723597,14.09
196,Madanapalle,13.55,78.5,62.92,84,72,IN,1675723598,4.5
197,Airai,-8.9266,125.4092,63.43,87,78,TL,1675723598,2.26
198,Ulaangom,49.9811,92.0667,-9.78,95,100,MN,1675723599,2.04
199,Byron Bay,-28.65,153.6167,75.94,62,98,AU,1675723599,7.56
200,Kasongo-Lunda,-6.4667,16.8167,69.12,91,84,CD,1675723599,2.21
201,Rexburg,43.826,-111.7897,32.43,80,20,US,1675723541,10.36
202,Faya,18.3851,42.4509,52.32,55,90,SA,1675723538,3.76
203,Feijó,-8.1642,-70.3536,74.25,97,99,BR,1675723600,0.58
204,Tezu,27.9167,96.1667,59.07,71,97,IN,1675723600,3.2
205,Naze,28.3667,129.4833,65.32,83,30,JP,1675723601,14.07
206,Mossamedes,-15.1961,12.1522,70.66,78,76,AO,1675723601,5.3
207,Lumby,50.2498,-118.969,42.04,84,99,CA,1675723540,2.3
208,Kynšperk nad Ohří,50.1189,12.5303,24.49,81,13,CZ,1675723602,4.79
209,Labuhan,-6.8844,112.2051,76.46,85,100,ID,1675723602,7.78
210,Makokou,0.5738,12.8642,74.95,74,78,GA,1675723603,4.41
211,Sept-Îles,50.2001,-66.3821,14.0,68,20,CA,1675723323,9.22
212,Nantucket,41.2835,-70.0995,44.65,78,20,US,1675723280,26.46
213,Ziarat,30.3823,67.7282,35.02,26,0,PK,1675723603,7.02
214,Thompson,55.7435,-97.8558,12.36,85,100,CA,1675723541,9.22
215,Mar del Plata,-38.0023,-57.5575,67.95,71,40,AR,1675723573,13.0
216,Oranjemund,-28.55,16.4333,65.37,97,82,NA,1675723604,9.93
217,Kupang,-10.1667,123.5833,77.58,94,75,ID,1675723604,3.44
218,Caravelas,-17.7125,-39.2481,78.04,81,0,BR,1675723605,9.08
219,Opuwo,-18.0607,13.84,67.1,45,90,NA,1675723607,6.08
220,Sylva,58.0348,56.7635,4.37,100,100,RU,1675723608,2.48
221,Dongsheng,39.8161,109.9776,22.14,48,0,CN,1675723495,7.47
222,Olafsvik,64.8945,-23.7142,31.1,65,100,IS,1675723608,37.09
223,Seymchan,62.8833,152.4333,-29.83,98,98,RU,1675723608,1.66
224,Bīdar,17.9,77.55,68.67,41,54,IN,1675723609,6.42
225,Chachoengsao,13.6167,101.4167,80.58,87,71,TH,1675723609,4.05
226,Makakilo City,21.3469,-158.0858,80.92,62,0,US,1675723610,23.02
227,Pendleton,45.6721,-118.7886,51.4,62,0,US,1675723552,21.85
228,Ivdel',60.6911,60.4206,-8.43,100,77,RU,1675723610,2.73
229,Qurayyat,31.3318,37.3428,48.38,46,40,SA,1675723611,9.22
230,Jiayuguan City,39.8167,98.3,23.09,43,10,CN,1675723611,2.1
231,Satara,17.6833,73.9833,65.7,39,40,IN,1675723611,3.51
232,Meulaboh,4.1363,96.1285,74.53,82,98,ID,1675723612,2.17
233,Liberty,31.8335,-81.5004,68.25,30,0,US,1675723612,5.75
234,San Juan,-31.5375,-68.5364,94.12,14,17,AR,1675723315,14.2
235,Palmer,42.1584,-72.3287,41.52,60,75,US,1675723613,12.66
236,Sterling,39.0062,-77.4286,47.26,58,75,US,1675723546,15.01
237,Port Elizabeth,-33.918,25.5701,72.32,99,75,ZA,1675723354,10.36
238,Comarapa,-17.9,-64.4833,58.37,90,90,BO,1675723614,3.76
239,Samandağ,36.0842,35.9771,48.4,80,100,TR,1675723614,16.11
240,Imbituba,-28.24,-48.6703,73.69,81,28,BR,1675723614,1.68
241,Januária,-15.4833,-44.3667,78.28,65,42,BR,1675723615,1.57
242,Herrán,7.5061,-72.4833,68.2,89,74,CO,1675723615,0.94
243,São João dos Patos,-6.495,-43.7022,73.63,89,100,BR,1675723615,3.65
244,Constitución,-35.3333,-72.4167,65.17,70,22,CL,1675723616,12.62
245,Bariloche,-41.1456,-71.3082,80.35,24,0,AR,1675723616,19.57
246,Flinders,-34.5833,150.8552,72.05,89,90,AU,1675723491,2.51
247,Santa Isabel Rio Negro,-0.4139,-65.0192,75.06,95,92,BR,1675723617,0.54
248,Tasiilaq,65.6145,-37.6368,12.36,90,98,GL,1675723617,7.36
249,Cabra,37.4725,-4.4421,44.58,81,0,ES,1675723378,4.45
250,Menzel Salem,35.8567,8.4765,46.38,69,75,TN,1675723618,1.5
251,Sirte,31.2089,16.5887,54.34,55,92,LY,1675723618,5.66
252,Siliviri,41.0802,28.226,32.05,91,100,TR,1675723619,21.79
253,Cayenne,4.9333,-52.3333,75.24,94,75,GF,1675723397,3.44
254,Padang,-0.9492,100.3543,76.62,81,92,ID,1675723619,3.91
255,Izhma,65.0083,53.9113,-15.52,100,98,RU,1675723620,3.98
256,Geraldton,-28.7667,114.6,63.01,88,40,AU,1675723620,4.61
257,Lebu,-37.6167,-73.65,59.88,79,0,CL,1675723555,19.51
258,Abu Dhabi,24.4667,54.3667,68.02,80,0,AE,1675723592,3.44
259,Pisco,-13.7,-76.2167,78.85,78,0,PE,1675723558,18.41
260,Vila Velha,-20.3297,-40.2925,78.75,83,0,BR,1675723529,6.91
261,Berdigestyakh,62.0989,126.6992,-49.31,100,100,RU,1675723621,2.06
262,Kaabong,3.4836,34.1492,68.67,30,19,UG,1675723622,5.97
263,Beyneu,45.3167,55.2,36.0,83,100,KZ,1675723622,18.61
264,Havelock,34.8791,-76.9013,60.75,55,0,US,1675723417,6.91
265,Khani,41.9563,42.9566,38.77,66,100,GE,1675723624,3.27
266,Marrakesh,31.6315,-8.0083,55.47,54,75,MA,1675723624,5.75
267,Cleveland,41.4995,-81.6954,33.22,81,100,US,1675723403,4.61
268,Bhuj,23.2667,69.6667,66.06,64,0,IN,1675723626,6.73
269,Kavieng,-2.5744,150.7967,82.58,78,97,PG,1675723552,9.4
270,Henties Bay,-22.116,14.2845,64.51,88,55,NA,1675723422,1.43
271,Vila Franca do Campo,37.7167,-25.4333,55.81,93,100,PT,1675723461,14.05
272,Codrington,-38.2667,141.9667,63.5,67,64,AU,1675723629,10.51
273,Salalah,17.0151,54.0924,71.69,60,0,OM,1675723598,2.3
274,Soller,39.7662,2.7152,51.42,87,83,ES,1675723630,1.99
275,Linxia Chengguanzhen,35.6003,103.2064,29.39,45,100,CN,1675723631,0.85
276,Ampanihy,-24.7,44.75,74.17,80,100,MG,1675723631,7.61
277,Dem'yanovo,60.3511,47.0842,-7.28,100,100,RU,1675723632,3.06
278,Tiksi,71.6872,128.8694,-31.63,100,89,RU,1675723428,4.72
279,San Patricio,28.017,-97.5169,78.75,67,24,US,1675723557,18.5
280,Nānākuli,21.3906,-158.1547,82.35,54,0,US,1675723633,13.8
281,Eyl,7.9803,49.8164,73.35,80,20,SO,1675723634,13.49
282,Khairpur Nathan Shah,27.0936,67.7337,61.23,20,0,PK,1675723635,3.6
283,Moscow,55.7522,37.6156,22.55,100,94,RU,1675723369,2.57
284,Mehamn,71.0357,27.8492,40.91,81,75,NO,1675723636,25.32
285,Berwick,41.0545,-76.2333,38.12,76,46,US,1675723026,7.02
286,Allonnes,47.9674,0.1581,35.64,80,0,FR,1675723637,4.61
287,Sungai Penuh,-2.0833,101.3833,63.39,85,93,ID,1675723637,1.48
288,Satipo,-11.2522,-74.6386,72.21,97,98,PE,1675723638,1.43
289,Naryan-Mar,67.6713,53.087,0.03,96,99,RU,1675723639,10.85
290,Balkhash,46.844,74.9804,4.78,97,97,KZ,1675723639,3.65
291,Magdagachi,53.45,125.8,-30.86,97,15,RU,1675723640,3.49
292,Barbastro,42.0356,0.1269,44.78,79,33,ES,1675723642,3.6
293,Buraidah,26.326,43.975,61.25,41,100,SA,1675723642,6.93
294,Lubango,-14.9172,13.4925,59.79,88,97,AO,1675723644,3.13
295,Lal'sk,60.7415,47.5862,-9.17,100,100,RU,1675723645,2.39
296,Shellbrook,53.2168,-106.4011,31.23,86,47,CA,1675723645,7.7
297,Davlekanovo,54.2215,55.0343,5.31,99,98,RU,1675723646,2.44
298,Ţahţā,26.7693,31.5021,48.6,37,75,EG,1675723646,6.4
299,Benguela,-12.5763,13.4055,75.87,80,93,AO,1675723647,5.91
300,Narsaq,60.9167,-46.05,-0.18,65,30,GL,1675723648,8.7
301,Ossora,59.2353,163.0719,-13.36,90,100,RU,1675723649,4.81
302,Great Falls,47.5002,-111.3008,47.59,41,0,US,1675723609,28.77
303,Ürümqi,43.801,87.6005,14.95,93,100,CN,1675723651,0.0
304,Novopavlovka,51.2172,109.2091,-12.77,100,98,RU,1675723651,2.13
305,Lufilufi,-13.8745,-171.5986,82.18,74,83,WS,1675723652,17.54
306,Severnoye,56.3491,78.3619,10.65,97,100,RU,1675723652,2.64
307,Shizunai-furukawachō,42.3339,142.3669,27.07,69,52,JP,1675723653,7.58
308,Umluj,25.0213,37.2685,66.25,48,96,SA,1675723653,7.34
309,Boueni,-12.9025,45.0761,76.98,78,100,YT,1675723654,10.18
310,Dangtu,31.5723,118.4928,46.45,94,100,CN,1675723654,4.9
311,Srednekolymsk,67.45,153.6833,-40.63,100,99,RU,1675723655,6.67
312,Mastic Beach,40.7668,-72.8521,45.99,64,40,US,1675723655,12.66
313,Nemuro,43.3236,145.575,24.39,88,100,JP,1675723656,11.48
314,Thinadhoo,0.5333,72.9333,80.85,76,100,MV,1675723656,11.41
315,Daru,-9.0763,143.2092,76.21,92,100,PG,1675723657,9.19
316,Chicama,-7.8447,-79.1469,75.74,67,24,PE,1675723657,8.57
317,Shitanjing,39.2342,106.3439,24.78,38,0,CN,1675723658,3.04
318,Vostok,46.4856,135.8833,-2.45,97,100,RU,1675723594,4.61
319,Matinha,-3.1006,-45.0336,75.06,94,99,BR,1675723658,3.29
320,San,13.3034,-4.8956,83.77,11,100,ML,1675723489,8.01
321,Yanam,16.7333,82.2167,63.5,95,99,IN,1675723640,1.14
322,Vardø,70.3705,31.1107,33.78,93,100,NO,1675723659,35.68
323,Poum,-20.2333,164.0167,81.41,81,94,NC,1675723659,15.23
324,Kaitangata,-46.2817,169.8464,67.55,51,27,NZ,1675723660,8.08
325,Liverpool,53.4106,-2.9779,37.78,85,0,GB,1675723660,4.61
326,Vaitape,-16.5167,-151.75,81.19,76,8,PF,1675723660,16.11
327,Sainte-Julienne,45.9668,-73.7159,20.91,94,13,CA,1675723661,3.58
328,Vredendal,-31.6683,18.5012,66.7,87,89,ZA,1675723661,5.79
329,Ugoofaaru,5.6667,73.0,80.26,76,100,MV,1675723661,8.43
330,Redcliffe,-27.2307,153.0973,80.55,61,75,AU,1675723521,8.05
331,Sharlyk,52.9167,54.75,-1.3,100,99,RU,1675723662,3.53
332,Río Gallegos,-51.6226,-69.2181,68.05,34,75,AR,1675723662,17.27
333,Kawalu,-7.3817,108.2082,71.55,89,97,ID,1675723663,1.7
334,Vestmanna,62.1564,-7.1664,41.92,61,75,FO,1675723663,23.02
335,Bubaque,11.2833,-15.8333,76.3,64,4,GW,1675723664,22.01
336,Morondava,-20.2833,44.2833,76.93,85,100,MG,1675723664,6.51
337,Eureka,40.8021,-124.1637,52.93,67,100,US,1675723470,5.01
338,Nandi,13.3855,77.6984,62.2,74,71,IN,1675723664,5.41
339,Bonito,-21.1211,-56.4819,72.09,95,99,BR,1675723665,3.38
340,Cabo San Lucas,22.8909,-109.9124,81.61,51,0,MX,1675723623,14.97
341,Mersing,2.4312,103.8405,73.31,94,20,MY,1675723665,6.91
342,Saint-Augustin,51.226,-58.6502,-4.85,89,84,CA,1675723665,5.66
343,Praia,14.9215,-23.5087,68.54,56,75,CV,1675723666,26.46
344,Mutare,-18.9707,32.6709,65.05,82,31,ZW,1675723666,1.66
345,Ondjiva,-17.0667,15.7333,71.2,55,90,AO,1675723667,5.55
346,San Quintín,30.4833,-115.95,59.59,64,9,MX,1675723667,22.75
347,Takāb,36.4009,47.1133,28.22,95,95,IR,1675723667,8.14
348,Sedalia,38.7045,-93.2283,66.85,48,0,US,1675723574,24.16
349,Nouna,12.7333,-3.8667,82.17,13,91,BF,1675723668,2.01
350,Castro,-24.7911,-50.0119,68.23,64,58,BR,1675723668,2.48
351,Sabang,5.8933,95.3214,80.37,75,92,ID,1675723669,7.49
352,Mangan,27.5167,88.5333,53.17,91,99,IN,1675723669,1.66
353,Gornopravdinsk,60.05,69.9,3.96,98,100,RU,1675723670,4.94
354,Maragogi,-9.0122,-35.2225,77.86,75,100,BR,1675723670,8.48
355,Pacific Grove,36.6177,-121.9166,58.68,68,0,US,1675723385,9.22
356,Severo-Kuril'sk,50.6789,156.125,23.9,77,100,RU,1675723671,27.4
357,Sinnamary,5.3833,-52.95,76.06,89,81,GF,1675723671,13.38
358,Pingliang,35.5392,106.6861,33.57,52,85,CN,1675723671,1.54
359,Atambua,-9.1061,124.8925,75.49,83,72,ID,1675723672,1.99
360,Takapau,-40.0333,176.35,72.63,51,0,NZ,1675723672,2.1
361,Yar-Sale,66.8333,70.8333,-7.51,99,92,RU,1675723654,5.7
362,Changping,40.2186,116.2197,15.44,67,1,CN,1675723673,1.52
363,Acapulco de Juárez,16.8634,-99.8901,84.02,65,0,MX,1675723422,8.05
364,Bam,29.106,58.357,57.43,34,5,IR,1675723673,4.88
365,Tigbao,12.5546,123.3389,77.59,86,49,PH,1675723675,10.31
366,Lithgow,-33.4833,150.15,67.41,66,83,AU,1675723675,6.42
367,Ambilobe,-13.2,49.05,71.58,97,100,MG,1675723676,2.06
368,Nyurba,63.2842,118.3319,-45.18,100,92,RU,1675723676,1.12
369,Longyearbyen,78.2186,15.6401,26.44,93,100,SJ,1675723677,25.32
370,Barcelona,41.3888,2.159,52.84,55,20,ES,1675723677,13.8
371,Tambun,-6.2641,107.0712,83.48,69,99,ID,1675723678,3.94
372,Hīt,33.6416,42.8251,52.59,44,14,IQ,1675723679,10.4
373,Limulunga,-15.0969,23.1376,66.99,96,100,ZM,1675723680,4.47
374,São Filipe,14.8961,-24.4956,68.45,62,16,CV,1675723680,17.69
375,Te Anau,-45.4167,167.7167,57.6,92,99,NZ,1675723478,7.43
376,Jämsä,61.8642,25.19,25.52,87,98,FI,1675723681,6.33
377,Esperance,-33.8667,121.9,68.58,86,6,AU,1675723655,17.67
378,Pangnirtung,66.1451,-65.7125,-22.0,69,20,CA,1675723681,18.41
379,Colonia Nueva Germania,-23.9,-56.5667,82.67,49,98,PY,1675723681,2.93
380,Paamiut,61.994,-49.6678,9.73,92,100,GL,1675723683,5.23
381,Taylorville,39.5489,-89.2945,51.85,62,0,US,1675723615,18.41
382,Sant Feliu de Guíxols,41.7833,3.0333,47.91,39,53,ES,1675723684,14.09
383,Vacaria,-28.5122,-50.9339,63.55,77,66,BR,1675723684,5.88
384,Beira,-19.8436,34.8389,77.09,94,20,MZ,1675723685,5.01
385,Requena,39.4883,-1.1004,37.53,89,100,ES,1675723401,9.06
386,Langxiang,46.95,128.8833,-1.79,100,92,CN,1675723686,3.18
387,La Santisima Trinidad,-14.8333,-64.9,80.58,83,75,BO,1675723686,0.0
388,The Valley,18.217,-63.0578,78.66,78,20,AI,1675723687,13.8
389,Troitskoye,52.9821,84.6757,20.73,96,99,RU,1675723688,6.98
390,Leningradskiy,69.3833,178.4167,-25.53,96,99,RU,1675723688,8.12
391,San Cristobal,7.7669,-72.225,78.98,65,63,VE,1675723689,2.66
392,Guerrero Negro,27.9769,-114.0611,64.38,50,98,MX,1675723618,20.36
393,Semey,50.4111,80.2275,10.62,93,76,KZ,1675723690,6.02
394,Muskegon,43.3,-86.1334,35.89,63,75,US,1675723617,18.41
395,Solnechnyy,50.7214,136.6319,-6.88,98,100,RU,1675723691,3.15
396,Moratuwa,6.773,79.8816,75.22,92,99,LK,1675723691,9.22
397,Diu,20.7141,70.9822,67.69,57,1,IN,1675723692,5.7
398,Lawrenceburg,38.0373,-84.8966,54.18,40,0,US,1675723693,5.75
399,Synya,65.3718,58.0387,-7.65,100,92,RU,1675723694,5.48
400,Alice Springs,-23.7,133.8833,76.55,31,75,AU,1675723487,6.91
401,Mount Gambier,-37.8333,140.7667,64.71,61,8,AU,1675723430,7.96
402,Ginir,7.1333,40.7,57.25,24,17,ET,1675723695,3.04
403,Chester,40.1254,-75.8749,41.59,71,75,US,1675723696,12.66
404,Fernie,49.5,-115.0687,42.89,96,100,CA,1675723696,5.32
405,Ponta Delgada,37.7333,-25.6667,56.12,94,75,PT,1675723700,18.41
406,Malakwal,32.5536,73.2123,52.2,58,0,PK,1675723701,7.36
407,Mount Isa,-20.7333,139.5,76.77,94,100,AU,1675723702,14.97
408,Iqaluit,63.7506,-68.5145,-25.87,68,40,CA,1675723703,11.5
409,Yumen,40.2833,97.2,24.22,49,84,CN,1675723705,3.0
410,Makushino,55.2103,67.2442,2.05,98,94,RU,1675723706,3.58
411,Azángaro,-14.9167,-70.2167,49.41,76,93,PE,1675723708,4.68
412,Tupik,54.4253,119.9327,-27.87,100,100,RU,1675723709,0.65
413,Butembo,0.15,29.2833,64.99,49,98,CD,1675723711,2.26
414,Kamiiso,41.8167,140.65,17.98,93,40,JP,1675723711,5.75
415,Laas,46.6166,10.7002,31.08,97,96,IT,1675723712,5.21
416,Saint Paul Harbor,57.79,-152.4072,36.91,60,0,US,1675723712,10.36
417,Samarai,-10.6167,150.6667,78.98,85,100,PG,1675723712,9.42
418,Preston,53.7667,-2.7167,42.89,88,53,GB,1675723713,5.12
419,Hoquiam,46.9809,-123.8893,51.96,81,100,US,1675723713,17.27
420,Evensk,61.95,159.2333,-20.06,76,55,RU,1675723714,9.93
421,Magistral'nyy,56.1725,107.4458,4.14,96,100,RU,1675723714,3.36
422,Oxapampa,-10.5775,-75.4017,60.8,98,100,PE,1675723714,0.72
423,Viedma,-40.8135,-62.9967,70.47,39,31,AR,1675723715,15.39
424,Tocopilla,-22.092,-70.1979,74.07,76,34,CL,1675723715,9.4
425,Buchanan,5.8808,-10.0467,78.42,87,29,LR,1675723716,5.06
426,Muhororo,0.9381,30.7594,66.06,47,52,UG,1675723716,2.66
427,Māndal,25.45,74.5667,61.27,51,0,IN,1675723717,8.63
428,Alofi,-19.0595,-169.9187,82.29,74,75,NU,1675723717,8.05
429,Donskoye,45.4552,41.9741,23.13,92,100,RU,1675723717,14.99
430,Letnyaya Stavka,45.4306,43.4472,23.81,94,100,RU,1675723718,14.34
431,Amahai,-3.3333,128.9167,78.98,81,100,ID,1675723718,3.67
432,Syedove,47.0768,38.156,24.51,75,100,UA,1675723719,21.09
433,Nanortalik,60.1432,-45.2371,5.65,84,76,GL,1675723719,11.07
434,Hamilton,39.1834,-84.5333,47.64,55,0,US,1675723670,8.05
435,Port-Gentil,-0.7193,8.7815,80.56,89,40,GA,1675723665,4.61
436,Erzin,36.9559,36.2,43.43,92,100,TR,1675723720,1.5
437,Rio Grande,-32.035,-52.0986,82.51,73,1,BR,1675723668,10.6
438,Aswān,24.0934,32.907,56.5,44,0,EG,1675723720,4.61
439,Tres Arroyos,-38.3739,-60.2798,70.09,46,30,AR,1675723721,19.42
440,Aracati,-4.5617,-37.7697,79.54,79,29,BR,1675723721,10.16
441,Winfield,37.2398,-96.9956,65.5,45,97,US,1675723722,4.0
442,Inzer,54.2167,57.5556,8.42,98,100,RU,1675723722,0.74
443,Colares,38.7992,-9.4469,53.89,67,31,PT,1675723723,14.0
444,Hobyo,5.3505,48.5268,76.23,79,60,SO,1675723723,17.0
445,Yulara,-25.2406,130.9889,81.18,19,0,AU,1675723724,9.31
446,Najrān,17.4924,44.1277,65.05,63,72,SA,1675723724,6.13
447,Berlevåg,70.8578,29.0864,40.95,70,0,NO,1675723706,29.93
448,Roebourne,-20.7833,117.1333,85.78,64,2,AU,1675723724,1.77
449,Coahuayana Viejo,18.7333,-103.6833,83.66,57,0,MX,1675723725,5.88
450,Daytona Beach,29.2108,-81.0228,67.06,68,0,US,1675723725,14.97
451,Darnah,32.767,22.6367,50.07,73,95,LY,1675723726,14.74
452,Montepuez,-13.1256,38.9997,68.79,97,100,MZ,1675723726,7.23
453,Inhambane,-23.865,35.3833,76.5,87,100,MZ,1675723726,10.45
454,São João da Barra,-21.6403,-41.0511,80.69,91,97,BR,1675723727,4.12
455,Hofn,64.2539,-15.2082,35.53,57,54,IS,1675723727,21.23
456,Puerto Escondido,15.85,-97.0667,83.23,61,40,MX,1675723728,6.91
457,Øksfjord,70.2396,22.3479,46.58,98,100,NO,1675723728,12.62
458,Townsville,-19.25,146.8,85.08,74,20,AU,1675723728,9.22
459,Yantongshan,43.2919,126.0094,-1.21,94,23,CN,1675723729,5.17
460,Khuzhir,53.1939,107.3397,7.63,89,76,RU,1675723729,8.25
461,Manapparai,10.6,78.4167,68.86,88,36,IN,1675723730,1.45
462,Sakaiminato,35.55,133.2333,42.78,75,75,JP,1675723730,3.44
463,Luorong,24.4058,109.6086,55.94,93,100,CN,1675723730,3.49
464,Nome,64.5011,-165.4064,6.87,72,0,US,1675723484,8.05
465,Cairns,-16.9167,145.7667,84.15,79,73,AU,1675723731,5.75
466,Bordighera,43.7806,7.6645,49.95,55,86,IT,1675723731,15.01
467,Brufut,13.3814,-16.7518,69.89,60,34,GM,1675723732,8.05
468,Auki,-8.7676,160.7034,82.58,72,98,SB,1675723695,5.86
469,Margate,51.3813,1.3862,42.91,84,3,GB,1675723732,1.99
470,Chapais,49.7834,-74.8492,4.78,96,28,CA,1675723661,3.89
471,Pochutla,15.7432,-96.4661,81.99,55,9,MX,1675723725,6.85
472,Kiunga,-6.1219,141.2906,76.05,94,99,PG,1675723733,2.93
473,Jizan,17.3333,42.6667,76.14,70,74,SA,1675723733,6.33
474,Atar,20.5169,-13.0499,63.05,26,0,MR,1675723734,8.93
475,Salinópolis,-0.6136,-47.3561,77.41,90,98,BR,1675723734,10.22
476,Maryville,35.7565,-83.9705,61.0,38,20,US,1675723494,0.0
477,Skjervøy,70.0311,20.9714,50.0,88,100,NO,1675723735,18.32
478,Tual,-5.6667,132.75,80.87,79,99,ID,1675723558,14.58
479,Tawao,4.2498,117.8871,73.53,89,98,MY,1675723735,4.56
480,Pathein,16.7833,94.7333,68.34,64,35,MM,1675723736,5.46
481,Les Cayes,18.2,-73.75,75.94,80,18,HT,1675723736,7.05
482,Skellefteå,64.7507,20.9528,42.01,95,100,SE,1675723736,17.27
483,Santa Leopoldina,-20.1006,-40.5297,78.42,92,90,BR,1675723737,1.07
484,Hamakita,34.8,137.7833,47.64,57,100,JP,1675723737,2.39
485,Porto Walter,-8.2686,-72.7439,72.18,98,100,BR,1675723738,0.94
486,Şofronea,46.2667,21.3,24.98,80,0,RO,1675723738,7.0
487,Kita,13.0349,-9.4895,83.41,15,100,ML,1675723738,5.32
488,Alta Floresta,-9.8756,-56.0861,72.95,95,92,BR,1675723739,0.72
489,Port Hedland,-20.3167,118.5667,82.45,89,28,AU,1675723739,3.44
490,Tynda,55.1667,124.7167,-43.6,99,40,RU,1675723740,2.64
491,Bonthe,7.5264,-12.505,76.48,78,100,SL,1675723740,6.91
492,Sorong,-0.8833,131.25,78.55,83,100,ID,1675723740,3.29
493,Farnes,61.3167,7.8,27.1,96,100,NO,1675723741,2.26
494,Zehdenick,52.9785,13.3317,28.0,78,6,DE,1675723741,3.53
495,Téra,14.0078,0.7531,82.6,14,98,NE,1675723742,6.85
496,Rio Verde de Mato Grosso,-18.9181,-54.8442,74.41,90,79,BR,1675723743,2.73
497,Yerbogachën,61.2767,108.0108,-21.06,100,94,RU,1675723744,2.55
498,Richards Bay,-28.783,32.0377,72.09,94,0,ZA,1675723745,4.25
499,Brae,60.3964,-1.353,47.01,81,98,GB,1675723746,24.4
500,Glendive,47.1053,-104.7125,38.82,65,0,US,1675723746,19.57
501,Jiangyou,31.7667,104.7167,52.92,60,99,CN,1675723747,2.89
502,Pangai,-19.8,-174.35,77.11,78,75,TO,1675723747,9.22
503,Belmonte,-15.8631,-38.8828,78.84,83,0,BR,1675723748,9.66
504,Tsimmerbude,54.675,20.1347,35.65,89,64,RU,1675723748,7.61
505,Mezhdurechensk,53.6942,88.0603,17.78,96,100,RU,1675723749,2.98
506,Mackay,-21.15,149.2,84.69,81,41,AU,1675723750,17.34
507,Sioux Lookout,50.1001,-91.917,33.87,69,100,CA,1675723750,13.8
508,Merauke,-8.4667,140.3333,78.78,88,100,ID,1675723751,12.73
509,Niquero,20.0431,-77.5828,78.03,72,4,CU,1675723751,5.44
510,Mabai,23.0128,104.4508,54.52,91,99,CN,1675723752,3.96
511,Minot,48.2325,-101.2963,34.02,80,75,US,1675723560,25.32
512,Araouane,18.9048,-3.5265,71.49,13,100,ML,1675723752,9.28
513,Ramnagar,29.4,79.1167,55.89,49,1,IN,1675723753,5.19
514,Victoria Point,-27.5833,153.3,82.9,67,95,AU,1675723754,5.99
515,Leshukonskoye,64.8989,45.7622,-1.16,99,87,RU,1675723754,4.85
516,Kachug,53.9606,105.8817,-9.92,100,84,RU,1675723755,3.11
517,Buala,-8.145,159.5921,82.26,77,90,SB,1675723755,9.17
518,Kudus,-6.8048,110.8405,74.71,95,100,ID,1675723756,2.59
519,Moyale,3.5167,39.0584,70.45,33,11,KE,1675723756,9.78
520,Ayan,56.45,138.1667,-18.27,80,30,RU,1675723757,8.97
521,Puerto Triunfo,5.8726,-74.6403,82.58,67,72,CO,1675723758,2.77
522,Pervomayskoye,43.919,46.7102,32.25,96,100,RU,1675723759,10.13
523,Muscat,23.6139,58.5922,68.02,58,61,OM,1675723759,3.04
524,São João do Piauí,-8.3581,-42.2467,80.11,59,99,BR,1675723760,2.55
525,Dondo,-19.6094,34.7431,76.51,89,23,MZ,1675723760,3.67
526,Mandera,3.9366,41.867,79.84,32,5,KE,1675723761,8.77
527,Verkhnyaya Toyma,62.2349,44.9985,-6.5,100,100,RU,1675723761,2.75
528,Sabha,27.0377,14.4283,51.62,51,99,LY,1675723762,9.78
529,Omsukchan,62.5333,155.8,-35.86,99,94,RU,1675723762,4.27
530,Kenai,60.5544,-151.2583,31.14,93,100,US,1675723763,11.5
531,Porosozero,62.7191,32.727,1.69,100,100,RU,1675723763,3.67
532,Sola,-13.8833,167.55,80.08,71,100,VU,1675723685,5.5
533,Kieta,-6.2167,155.6333,79.77,86,100,PG,1675723764,5.7
534,Manzhouli,49.6,117.4333,-6.21,99,57,CN,1675723765,7.72
535,Rabat,33.9911,-6.8401,52.03,95,0,MA,1675723765,0.0
536,Florø,61.5996,5.0328,44.96,76,100,NO,1675723766,20.71
537,Obregon,11.9566,-85.9636,89.69,50,16,NI,1675723767,17.36
538,Nishihara,26.1842,127.7558,67.28,91,40,JP,1675723768,10.36
539,Shelburne,44.0787,-80.2041,23.79,97,62,CA,1675723769,3.58
540,Vuktyl,63.8567,57.3094,-12.26,100,95,RU,1675723769,3.71
541,Kaeo,-35.1,173.7833,75.33,78,14,NZ,1675723770,1.83
542,Mayo,38.8876,-76.5119,48.31,57,100,US,1675723770,13.8
543,Mzimba,-11.9,33.6,61.59,98,100,MW,1675723771,5.84
544,Ust-Maya,60.4167,134.5333,-35.34,99,100,RU,1675723598,2.44
545,Newport,51.5877,-2.9984,39.06,90,56,GB,1675723771,1.81
546,Corrente,-3.7367,-43.3394,72.68,98,99,BR,1675723772,3.27
547,Dingle,10.9995,122.6711,75.24,91,100,PH,1675723772,7.31
548,Devonport,-41.1667,146.35,64.09,53,0,AU,1675723772,3.22
549,Iquique,-20.2208,-70.1431,78.84,80,94,CL,1675723656,7.27
550,Karachi,24.9056,67.0822,62.42,67,0,PK,1675723542,3.44
